[
  {
    "name": "ngConf 2025",
    "date": "3/1/2025",
    "time": "8am",
    "location": {
      "address": "123 Main St",
      "city": "Salt Lake City, UT",
      "country": "USA"
    }
  },
  {
    "name": "pinConf 2024",
    "date": "3/8/2024",
    "time": "10am",
    "location": {
      "address": "456 Side St",
      "city": "Toronto, ON",
      "country": "Canada"
    }
  },
  {
    "name": "reactConf 2025",
    "date": "10/12/2024",
    "time": "4pm",
    "location": {
      "address": "123 Main St",
      "city": "Gainesville, FL",
      "country": "USA"
    }
  },

  {
    "name": "Angular Connect",
    "date": "9/26/2036",
    "time": "10am"
  },
  {
    "name": "ng-nl",
    "date": "4/15/2037",
    "time": "9am",
    "location": {
      "address": "127 DT ",
      "city": "Amsterdam",
      "country": "NL"
    }
  },
  {
    "name": "ng-conf 2037",
    "date": "4/15/2037",
    "time": "9am"
  },
  {
    "name": "UN Angular Summit",
    "date": "6/10/2037",
    "time": "8am",
    "location": {
      "address": "The UN Angular Center",
      "city": "New York",
      "country": "USA"
    }
  }
]
